empty_slots,free_bikes,id,latitude,longitude,name,timestamp,extra_ebikes,extra_has_ebikes,extra_last_updated,lat_long
5,29,7a19c49f486d7c0c02b3685d7b240448,49.262487,-123.114397,10th & Cambie,2023-09-21 19:03:51.469000,6,true,1695322925,"49.262487,-123.114397"
12,4,32603a87cfca71d0f7dfa3513bad69d5,49.274566,-123.121817,Yaletown-Roundhouse Station,2023-09-21 19:03:51.456000,0,true,1695322945,"49.274566,-123.121817"
13,13,6d42fa40360f9a6b2bf641c7b8bb2862,49.279764,-123.110154,Dunsmuir & Beatty,2023-09-21 19:03:51.457000,1,true,1695322662,"49.279764,-123.110154"
11,5,66f873d641d448bd1572ab086665a458,49.260599,-123.113504,12th & Yukon (City Hall),2023-09-21 19:03:51.458000,4,true,1695322780,"49.260599,-123.113504"
9,7,485d4d24c803cfde829ab89699fed833,49.264215,-123.117772,8th & Ash,2023-09-21 19:03:51.477000,4,true,1695322949,"49.264215,-123.117772"
7,7,b07d513f87897cff7319a0e59d7e567c,49.270877,-123.115103,Spyglass & Seawall,2023-09-21 19:03:51.478000,0,true,1695322851,"49.270877,-123.115103"
6,6,d1c9556d92f329703229fb3e33899a3b,49.26893,-123.11813,Stamps Landing,2023-09-21 19:03:51.656000,0,true,1695323018,"49.26893,-123.11813"
16,4,95e624191c655f50e401d280cd39a9ad,49.271721,-123.104207,Ontario & Seawall,2023-09-21 19:03:51.656000,0,true,1695323022,"49.271721,-123.104207"
11,15,3e112f9fe877e0003780386359060ae6,49.287214,-123.11287,Canada Place,2023-09-21 19:03:51.654000,3,true,1695322939,"49.287214,-123.11287"
7,11,6993b3dbb0758927967592ea612a2b1e,49.282409,-123.118541,Granville & Georgia,2023-09-21 19:03:51.653000,5,true,1695322927,"49.282409,-123.118541"
13,13,bf8408067b0e0c963f3ff526977bcef3,49.287097,-123.118551,Pender & Burrard,2023-09-21 19:03:51.653000,2,true,1695322977,"49.287097,-123.118551"
5,16,d2244f1a81d317c76cabd65e81250835,49.273471,-123.118016,Marinaside & Davie,2023-09-21 19:03:51.646000,4,true,1695323018,"49.273471,-123.118016"
10,17,0b543fc4e694fe07a54dac48bb1b3390,49.282758,-123.122092,Robson & Hornby,2023-09-21 19:03:51.665000,11,true,1695322989,"49.282758,-123.122092"
9,12,fbb1d30d7f30b049873f5be5688563d4,49.28602,-123.116624,Hornby & Pender,2023-09-21 19:03:51.751000,8,true,1695322999,"49.28602,-123.116624"
4,16,7181df50ee1d1a05559399211382b7c8,49.279739,-123.116251,Homer & Robson (Vancouver Public Library),2023-09-21 19:03:51.752000,4,true,1695322931,"49.279739,-123.116251"
13,7,2ef000bc9d4650d8cc6198c4d570b19f,49.277483,-123.114279,Beatty & Robson,2023-09-21 19:03:51.750000,4,true,1695322991,"49.277483,-123.114279"
2,12,b7683a86874e6300fd89f4cc0b075f57,49.275679,-123.116963,Beatty & Nelson,2023-09-21 19:03:51.751000,0,true,1695322902,"49.275679,-123.116963"
2,18,3367c1e1dbf73caf7c10e4c96a92f58d,49.282759,-123.106955,Abbott & Cordova,2023-09-21 19:03:51.196000,4,true,1695322931,"49.282759,-123.106955"
11,7,1d7e73b3321ebb6713774d376247d9f9,49.288444,-123.139203,Comox & Denman,2023-09-21 19:03:51.198000,0,true,1695322998,"49.288444,-123.139203"
0,15,664502c28e8147615f17b8ea355f40d0,49.289124,-123.12196,Cordova & Bute,2023-09-21 19:03:51.189000,3,true,1695322888,"49.289124,-123.12196"
14,0,6c24a62b5ee0a2a8014eb0dfb6d40025,49.28062,-123.12482,Hornby & Nelson,2023-09-21 19:03:51.190000,0,true,1695323010,"49.28062,-123.12482"
8,7,fad9ebcf614dd1a72593a34072ff76f8,49.279938,-123.127478,Helmcken & Burrard,2023-09-21 19:03:51.178000,6,true,1695322887,"49.279938,-123.127478"
12,2,3a4131fa94946d93d3529136efd62413,49.273663,-123.127075,Pacific & Richards,2023-09-21 19:03:51.230000,1,true,1695323016,"49.273663,-123.127075"
7,6,25318ec3e06fae1397a3a2f645104149,49.28972,-123.144028,Chilco & Beach,2023-09-21 19:03:51.234000,0,true,1695322714,"49.28972,-123.144028"
11,1,444991edc9550be0908f032da5e3c95f,49.285253,-123.134356,Comox & Broughton,2023-09-21 19:03:51.222000,0,true,1695322537,"49.285253,-123.134356"
16,6,434b6f4e7fc30198f901b60fc905f609,49.283343,-123.131099,Bute & Comox,2023-09-21 19:03:51.268000,0,true,1695322740,"49.283343,-123.131099"
17,15,f97d5bf41f35aa181288429fb52e3488,49.284605,-123.108662,Cambie & Water,2023-09-21 19:03:51.267000,3,true,1695323002,"49.284605,-123.108662"
6,21,fef69fb400210d861107a61db954d037,49.279821,-123.10802,Keefer & Abbott,2023-09-21 19:03:51.267000,0,true,1695322904,"49.279821,-123.10802"
2,14,9d3123425823420514b8ad410074f02d,49.278004,-123.105664,Expo & Carrall,2023-09-21 19:03:51.274000,4,true,1695322967,"49.278004,-123.105664"
1,12,f1ca711137cde59e824167a4274df888,49.279342,-123.101822,Keefer & Columbia,2023-09-21 19:03:51.272000,2,true,1695322876,"49.279342,-123.101822"
21,5,4f6ebf2026d540ffe40e29a80138ad5e,49.273833,-123.114373,Marinaside & Cooperage,2023-09-21 19:03:51.269000,0,true,1695322976,"49.273833,-123.114373"
14,11,be14efdc86dedd6a8cd338e78ab4e7c7,49.28526,-123.141809,Bidwell & Burnaby,2023-09-21 19:03:51.446000,0,true,1695322831,"49.28526,-123.141809"
13,15,6ddeafa873279951630a00191333c45d,49.281506,-123.120101,Robson & Granville,2023-09-21 19:03:51.446000,11,true,1695322695,"49.281506,-123.120101"
3,10,c7b5bec0b2f4ab9a2d3f9d837725620c,49.276115,-123.114496,Expo & Smithe,2023-09-21 19:03:51.437000,0,true,1695322909,"49.276115,-123.114496"
6,15,b9fd847d53fe45658fee4c46e7f562b8,49.272827,-123.147744,Cypress & Cornwall,2023-09-21 19:03:51.445000,0,true,1695322947,"49.272827,-123.147744"
2,26,c2be5403b1c101e8032cf6696457200e,49.269361,-123.13782,Anderson & 2nd,2023-09-21 19:03:51.436000,7,true,1695322681,"49.269361,-123.13782"
9,5,71c064fa93cab5f0b7306e6c923b77c4,49.2653,-123.13811,7th & Granville,2023-09-21 19:03:51.455000,0,true,1695322779,"49.2653,-123.13811"
11,2,96bf713e60bc35cc2feb5fd53a4f3471,49.262598,-123.138921,10th & Granville,2023-09-21 19:03:51.496000,0,true,1695322527,"49.262598,-123.138921"
12,1,8dc684732a2a25bdf63ec0ecccee4e6e,49.25894,-123.139272,14th & Granville,2023-09-21 19:03:51.495000,1,true,1695322810,"49.25894,-123.139272"
10,4,686c0fdb962e26e274d81fc286c010dd,49.258763,-123.115392,14th & Cambie,2023-09-21 19:03:51.517000,4,true,1695322978,"49.258763,-123.115392"
13,7,0cf6cd1809fa7f510812f5b052f578c4,49.266724,-123.104824,Ontario & 5th,2023-09-21 19:03:51.497000,4,true,1695322777,"49.266724,-123.104824"
15,3,93c88a18c673e2c72a6afa93d6b89f18,49.262141,-123.101961,10th & Main,2023-09-21 19:03:51.565000,3,true,1695322585,"49.262141,-123.101961"
7,10,8fb5ce1e34ad31de940481953aea452c,49.268269,-123.147885,Cypress & 4th,2023-09-21 19:03:51.583000,0,true,1695323017,"49.268269,-123.147885"
17,10,aa704bfba40286bd0661b64d1f75e778,49.275717,-123.142564,Vanier Park,2023-09-21 19:03:51.581000,0,true,1695322928,"49.275717,-123.142564"
9,5,13021bba7bbeca1ccd8726ca17da59e6,49.25094,-123.101306,22nd & Main,2023-09-21 19:03:51.717000,0,true,1695322567,"49.25094,-123.101306"
10,10,8c9ea7f2132376859ef34fab981d6932,49.276436,-123.11877,Nelson & Mainland,2023-09-21 19:03:51.593000,0,true,1695322824,"49.276436,-123.11877"
8,9,1d4153659a0a0a2089078c739df6737d,49.277844,-123.120942,Nelson & Richards,2023-09-21 19:03:51.585000,1,true,1695322915,"49.277844,-123.120942"
7,9,fbb4c06b719596c21f91fd51ef6d4710,49.265089,-123.119425,7th & Heather,2023-09-21 19:03:51.741000,0,true,1695322968,"49.265089,-123.119425"
20,0,72c1049dfbbde7c24ec45c14f1a5ee85,49.28026,-123.135244,Harwood & Bute,2023-09-21 19:03:51.678000,0,true,1695322475,"49.28026,-123.135244"
14,4,00fa94ad698dc4a9e4d708d6fd32f294,49.291909,-123.140713,Chilco & Barclay,2023-09-21 19:03:51.774000,1,true,1695322812,"49.291909,-123.140713"
8,8,efa947b901a2cf85b58320b3ad26a2fe,49.293257,-123.138563,Chilco & Robson,2023-09-21 19:03:51.773000,0,true,1695322898,"49.293257,-123.138563"
15,3,66a53e9c32e4f5c724f9478240020142,49.288011,-123.132006,Nicola & Robson,2023-09-21 19:03:51.771000,1,true,1695322865,"49.288011,-123.132006"
4,14,97b25faf822b93fdbf72da1d594c0288,49.28117,-123.104419,Carrall & Hastings,2023-09-21 19:03:51.769000,0,true,1695322764,"49.28117,-123.104419"
5,23,6c7fb9043e6df5a4cc50404581a947b9,49.283227,-123.120523,šxʷƛ̓ənəq Xwtl'e7énḵ Square - Vancouver Art Gallery,2023-09-21 19:03:51.768000,14,true,1695322879,"49.283227,-123.120523"
1,15,30bf49544b1c864688b78172d42cca5e,49.299292,-123.130281,Stanley Park - Vancouver Aquarium,2023-09-21 19:03:51.346000,0,true,1695322826,"49.299292,-123.130281"
4,12,9f63cebac9073eac3e90be2b9a91b02b,49.29534,-123.150433,Stanley Park - Second Beach North,2023-09-21 19:03:51.348000,2,true,1695322925,"49.29534,-123.150433"
12,6,9aa325529164ec68b4d96c4f1c4fc7c1,49.294318,-123.148808,Stanley Park - Second Beach South,2023-09-21 19:03:51.336000,1,true,1695322937,"49.294318,-123.148808"
10,10,e3d32ad772a5898c3b96c4d23d2cd542,49.298657,-123.121176,Stanley Park - Totem Poles,2023-09-21 19:03:51.334000,2,true,1695323020,"49.298657,-123.121176"
11,5,625a2ad202275c8e2be3ce868e85b105,49.259183,-123.120126,Heather & 14th,2023-09-21 19:03:51.345000,4,true,1695322795,"49.259183,-123.120126"
4,11,6c0de983fb47a3439a9e3c36a3d15804,49.263837,-123.105173,8th & Ontario,2023-09-21 19:03:51.345000,2,true,1695322980,"49.263837,-123.105173"
15,11,92c9e62c0b42adf4759c430009d3987a,49.270721,-123.146175,1st & Chestnut,2023-09-21 19:03:51.331000,0,true,1695322908,"49.270721,-123.146175"
14,2,51e4d3731aebbf9c3186f310a08de6c8,49.265605,-123.152566,7th & Arbutus,2023-09-21 19:03:51.330000,1,true,1695322443,"49.265605,-123.152566"
13,2,826af7eee4ce28b6fa4b4f0211305792,49.267222,-123.153157,5th & Arbutus,2023-09-21 19:03:51.255000,2,true,1695322993,"49.267222,-123.153157"
22,4,4cb84c9a3743287019ae00ceef9a1cd3,49.262255,-123.126217,10th & Oak,2023-09-21 19:03:51.253000,4,true,1695322853,"49.262255,-123.126217"
38,1,56fef9ba0af67a4ff3e661a8e02c0b08,49.257654,-123.153212,Arbutus & 16th,2023-09-21 19:03:51.254000,1,true,1695322695,"49.257654,-123.153212"
8,4,c81f75a80312c51ceaef1304beac1990,49.25919,-123.148268,Cypress & 14th,2023-09-21 19:03:51.257000,0,true,1695322497,"49.25919,-123.148268"
6,5,afacb2133f2462aba7748cc21b71c788,49.25741,-123.148531,Cypress & 16th,2023-09-21 19:03:51.265000,0,true,1695322683,"49.25741,-123.148531"
2,9,a9f0b06d07f89b75e92c0cf686223aea,49.285953,-123.124066,Georgia & Thurlow,2023-09-21 19:03:51.225000,0,true,1695323010,"49.285953,-123.124066"
8,7,686b314a6c3348efd2297d6b3dfed1a7,49.280881,-123.130672,Thurlow & Pendrell,2023-09-21 19:03:51.223000,0,true,1695322851,"49.280881,-123.130672"
9,2,0d1b5c62f8d22e3650811df55596e25b,49.256845,-123.120071,Heather & 16th,2023-09-21 19:03:51.199000,1,true,1695322746,"49.256845,-123.120071"
8,7,521c2122c791ed038168c3b8ff24061b,49.25849,-123.104799,14th & Ontario,2023-09-21 19:03:51.186000,0,true,1695322937,"49.25849,-123.104799"
12,1,838d5bb59963474ad08a6d5b156943ed,49.258425,-123.100792,14th & Main,2023-09-21 19:03:51.174000,0,true,1695322742,"49.258425,-123.100792"
9,9,b9ab6ce009eda6006ade1d7568d9db9c,49.270905,-123.126006,David Lam Park,2023-09-21 19:03:51.177000,0,true,1695323008,"49.270905,-123.126006"
6,11,9ec4163496363b31ab475cb851b57b21,49.273568,-123.129935,Beach & Seymour,2023-09-21 19:03:51.178000,0,true,1695322855,"49.273568,-123.129935"
15,3,fedff7a263c182df94bda7307059cc52,49.277141,-123.122589,Richards & Helmcken,2023-09-21 19:03:51.757000,1,true,1695322995,"49.277141,-123.122589"
8,8,b9baf685b7053de899bf3467f61c2781,49.267859,-123.145782,Burrard & 4th,2023-09-21 19:03:51.764000,0,true,1695322507,"49.267859,-123.145782"
10,6,8d6f0cbf7d44d2908c8ce73ed00dbf66,49.265336,-123.145823,Burrard & 7th,2023-09-21 19:03:51.205000,0,true,1695322706,"49.265336,-123.145823"
7,6,988f8f74c4a12d1a30ddf2f7cd6318f8,49.267628,-123.127698,South False Creek Seawall,2023-09-21 19:03:51.206000,0,true,1695322846,"49.267628,-123.127698"
10,5,2f09a64507cf6257c67ca20af27339eb,49.275938,-123.145939,Chestnut & McNicoll,2023-09-21 19:03:51.209000,0,true,1695322961,"49.275938,-123.145939"
2,17,73f388336d879bedc962cd412eb0296e,49.2756,-123.102661,Creekside Park North,2023-09-21 19:03:51.212000,1,true,1695322951,"49.2756,-123.102661"
8,12,cb6fddfdac7d350d25be475c7ab9e05a,49.284157,-123.099917,Alexander & Main,2023-09-21 19:03:51.673000,0,true,1695322816,"49.284157,-123.099917"
17,1,cadc004f0903ef45e898032143c0832f,49.258924,-123.152591,Arbutus Greenway & 14th,2023-09-21 19:03:51.767000,1,true,1695322989,"49.258924,-123.152591"
5,9,57e928d8c30fab0ebffb3ede850f89d6,49.266774,-123.141135,Arbutus Greenway & Fir,2023-09-21 19:03:51.768000,4,true,1695322854,"49.266774,-123.141135"
27,9,6526a2eb3832f9ba0224d237e901ea5b,49.273355,-123.154493,Kitsilano Beach Park,2023-09-21 19:03:51.765000,2,true,1695322877,"49.273355,-123.154493"
5,24,e44c2235dd603dbee54fe08f7543e85a,49.276144,-123.151272,Arbutus & McNicoll,2023-09-21 19:03:51.766000,4,true,1695322991,"49.276144,-123.151272"
13,4,3596b4831ee2ea7812de753b32306835,49.268339,-123.157443,Vine & 4th,2023-09-21 19:03:51.775000,1,true,1695322430,"49.268339,-123.157443"
6,8,c448b73d92f7f8e1daafb3b9c5fbe6a6,49.284062,-123.095097,Alexander & Dunlevy,2023-09-21 19:03:51.472000,0,true,1695322670,"49.284062,-123.095097"
11,2,5fc29e0ac42c11abb45bf12aaeb925bd,49.261742,-123.13148,Alder & 11th,2023-09-21 19:03:51.757000,2,true,1695322678,"49.261742,-123.13148"
10,2,61901a235d4cfceb7f8f2c3888b98617,49.262206,-123.109091,10th & Columbia,2023-09-21 19:03:51.416000,0,true,1695322853,"49.262206,-123.109091"
14,14,175a074bf65455d1633639511dc129c8,49.27023,-123.10651,1st & Manitoba,2023-09-21 19:03:51.423000,0,true,1695322976,"49.27023,-123.10651"
13,7,35eb539fb9298bb7e4f6759ca0256505,49.262062,-123.104656,10th & Ontario,2023-09-21 19:03:51.424000,2,true,1695322592,"49.262062,-123.104656"
18,0,7b8dfa12900bcb02b47a14e4e5010ba3,49.27033,-123.10275,Quebec & 1st,2023-09-21 19:03:51.425000,0,true,1695322723,"49.27033,-123.10275"
12,1,b30ed0719dd281867a4d39779c78b58a,49.258902,-123.109596,Columbia & 14th,2023-09-21 19:03:51.433000,0,true,1695322971,"49.258902,-123.109596"
11,7,e1a4d91fdae7e18483373f648141e53e,49.282224,-123.132778,Bute & Davie,2023-09-21 19:03:51.426000,5,true,1695322681,"49.282224,-123.132778"
14,0,ace20c241ee38643c9060f290b215b9d,49.265071,-123.123864,7th & Laurel,2023-09-21 19:03:51.397000,0,true,1695322670,"49.265071,-123.123864"
9,5,3aed670ccdcd94b966c0f505f8b028c7,49.265198,-123.131043,7th &  Alder,2023-09-21 19:03:51.394000,1,true,1695322673,"49.265198,-123.131043"
11,5,ae69aeab748d02e5a7d89da28a1a8511,49.273691,-123.102232,Science World,2023-09-21 19:03:51.395000,1,true,1695322611,"49.273691,-123.102232"
3,17,0c9ad3e3703e5869b82619ecdf54f43e,49.2685027,-123.0975014,1st & Scotia,2023-09-21 19:03:51.398000,0,true,1695322945,"49.2685027,-123.0975014"
15,3,f3708906ec71348f5a42579fede36a0d,49.288682,-123.11818,Shaw Tower,2023-09-21 19:03:51.311000,0,true,1695322659,"49.288682,-123.11818"
16,4,9449a6a83fbf88452e384350e5ac95b7,49.271741,-123.155421,York & Yew,2023-09-21 19:03:51.301000,0,true,1695322854,"49.271741,-123.155421"
16,4,365da33e9ce06ea53db1173a0f8eae71,49.262822,-123.14338,Pine & 10th,2023-09-21 19:03:51.309000,0,true,1695322936,"49.262822,-123.14338"
7,5,707c1c54e0278fbae5d0ae3c42a25b71,49.263635,-123.099236,8th & Scotia,2023-09-21 19:03:51.298000,1,true,1695322806,"49.263635,-123.099236"
16,4,5105df3dd0daf4c26980f4134f61e5cc,49.28763,-123.127245,Alberni & Jervis,2023-09-21 19:03:51.299000,2,true,1695322777,"49.28763,-123.127245"
5,13,82c794442f54fabf9db6e392ca1fac0f,49.297933,-123.130758,Stanley Park - Information Booth,2023-09-21 19:03:51.324000,1,true,1695322960,"49.297933,-123.130758"
11,1,2ca388bba54706770900ca2a9d7aa5be,49.258819,-123.131317,14th & Alder,2023-09-21 19:03:51.376000,1,true,1695323007,"49.258819,-123.131317"
6,7,e7bf01431a6982f032996ad50a9e5bd7,49.280284,-123.097052,Pender & Gore,2023-09-21 19:03:51.676000,3,true,1695322905,"49.280284,-123.097052"
5,13,1648ead5ea617d2cea115869d9516f5e,49.276294,-123.106534,Carrall & Seawall,2023-09-21 19:03:51.759000,1,true,1695323010,"49.276294,-123.106534"
4,10,91035fe1d70b65c9cb8ec4a007af7c7f,49.277469,-123.081315,Glen & Union,2023-09-21 19:03:51.753000,3,true,1695322880,"49.277469,-123.081315"
2,20,d3aaff4414a8c3fd5480c470f77ff68a,49.277665,-123.073653,Adanac & McLean,2023-09-21 19:03:51.323000,7,true,1695322974,"49.277665,-123.073653"
8,8,b307709b305dd04328fbbf2c6db86419,49.277436,-123.070427,Commercial & Adanac,2023-09-21 19:03:51.754000,1,true,1695322936,"49.277436,-123.070427"
12,4,e9c4bd1fffbb1e5b058b8ea15f7307f6,49.280332,-123.070068,Pender & Commercial,2023-09-21 19:03:51.755000,0,true,1695322739,"49.280332,-123.070068"
7,5,bb0847559ce71c93d8215c0997ea2811,49.279369,-123.091241,Keefer & Princess,2023-09-21 19:03:51.748000,1,true,1695322636,"49.279369,-123.091241"
12,8,1ef5c4ff3f0b09422bb1597fd9d7568b,49.283992,-123.091206,Alexander & Railway,2023-09-21 19:03:51.326000,3,true,1695322823,"49.283992,-123.091206"
14,0,ac3b8198f03754a0afb8b6ed6d220cdd,49.274881,-123.069323,Napier & Commercial,2023-09-21 19:03:51.215000,0,true,1695322610,"49.274881,-123.069323"
6,8,029a505bd4422a1afd127987757f71a6,49.275882,-123.071865,Britannia Parking Lot,2023-09-21 19:03:51.209000,0,true,1695322848,"49.275882,-123.071865"
4,10,0459b7e93703980b853cd65a9dc60596,49.273777,-123.092723,Thornton & National,2023-09-21 19:03:51.242000,0,true,1695322878,"49.273777,-123.092723"
22,6,a21f40838346e300063bdda3c5c04105,49.265005,-123.079481,Keith & 6th,2023-09-21 19:03:51.493000,2,true,1695322482,"49.265005,-123.079481"
8,6,6b1622540fe5c85d365754dd8c20bf0c,49.271377,-123.069416,Grant & Commercial,2023-09-21 19:03:51.677000,0,true,1695322610,"49.271377,-123.069416"
14,8,ebc551adb0fc1a684f4080e4954a9ba4,49.268616,-123.069908,2nd & Commercial,2023-09-21 19:03:51.660000,0,true,1695322876,"49.268616,-123.069908"
10,4,6eaa02e5bcf78db5386683d38fa2dabd,49.266969,-123.069936,4th & Commercial,2023-09-21 19:03:51.667000,0,true,1695322589,"49.266969,-123.069936"
13,6,983e58671adcc67af94457d7887dbb15,49.263242,-123.070521,8th & Commercial,2023-09-21 19:03:51.316000,1,true,1695322921,"49.263242,-123.070521"
22,4,797ff1725f8d2b18337de51e240ff60d,49.261403,-123.070102,10th & Commercial,2023-09-21 19:03:51.673000,0,true,1695322906,"49.261403,-123.070102"
9,5,277b4b4881bdb7dac73012672179def8,49.261263,-123.073707,Woodland & 10th,2023-09-21 19:03:51.470000,2,true,1695322849,"49.261263,-123.073707"
14,4,e1ff428dadc7c32141b9d89a7b56728a,49.262242,-123.081459,Glen & Broadway,2023-09-21 19:03:51.465000,0,true,1695322811,"49.262242,-123.081459"
5,7,012d3e06901cc222b1c2cf0a2ace3a29,49.262321,-123.09306,St George & Broadway,2023-09-21 19:03:51.275000,0,true,1695322957,"49.262321,-123.09306"
10,2,a6455af6b689bcbad07ae2c8a3419b50,49.264251,-123.073853,7th & Woodland,2023-09-21 19:03:51.476000,0,true,1695322490,"49.264251,-123.073853"
11,3,475627e149c1a6ba73caac8d8d2fa617,49.266751,-123.073501,Woodland & 4th,2023-09-21 19:03:51.486000,0,true,1695322845,"49.266751,-123.073501"
9,3,f387ec226c432c5c054e3d3616d90501,49.270684,-123.073562,Woodland & Graveley,2023-09-21 19:03:51.665000,3,true,1695322665,"49.270684,-123.073562"
1,13,1675a77b9af656faf527b4e6de53e63b,49.2731,-123.0732,Charles & Woodland,2023-09-21 19:03:51.491000,1,true,1695322952,"49.2731,-123.0732"
13,3,1bca0e944a4faf170db82793414b03ab,49.254667,-123.101389,18th & Main,2023-09-21 19:03:51.657000,2,true,1695322584,"49.254667,-123.101389"
6,8,d0782213f003ce9eb276fbceff44f1f4,49.256694,-123.096579,Prince Edward & 16th,2023-09-21 19:03:51.659000,0,true,1695322882,"49.256694,-123.096579"
11,3,1ef01f2f89621d51afbabaa6296e55be,49.258352,-123.096337,Prince Edward & 14th,2023-09-21 19:03:51.659000,0,true,1695323022,"49.258352,-123.096337"
12,4,c47a1f62ea461ce1c9f3e2478c657df6,49.258817,-123.092797,13th & St George,2023-09-21 19:03:51.425000,2,true,1695322992,"49.258817,-123.092797"
7,7,0cee06d7d10f7d3162cea03d22b7beed,49.26151,-123.089413,10th & Fraser,2023-09-21 19:03:51.281000,1,true,1695322871,"49.26151,-123.089413"
13,3,f62bc2bfe9a0a563d5b6745ce6d962ba,49.263382,-123.088837,8th & Fraser,2023-09-21 19:03:51.282000,1,true,1695322947,"49.263382,-123.088837"
11,1,1c8f7fd6535db12cc45cfc59aa9da058,49.261353,-123.085333,St Catherines & 10th,2023-09-21 19:03:51.327000,1,true,1695322978,"49.261353,-123.085333"
15,4,17a3320a52bcc62161908967f8a06613,49.264466,-123.085183,St Catherines & 7th,2023-09-21 19:03:51.328000,0,true,1695322585,"49.264466,-123.085183"
12,3,aed214941445e0345aa3254805a9e8b8,49.280197,-123.065859,Pender & Victoria,2023-09-21 19:03:51.413000,0,true,1695322520,"49.280197,-123.065859"
15,1,d67640af1b3b3b3ce47169dbc9182470,49.266725,-123.065925,Victoria & 4th,2023-09-21 19:03:51.405000,0,true,1695322579,"49.266725,-123.065925"
7,5,b2c6aaf2b4fa8937bfe3941c038683aa,49.261188,-123.066009,Victoria & 10th,2023-09-21 19:03:51.401000,1,true,1695322977,"49.261188,-123.066009"
13,3,0a43242bee10cd33f539af2c1bf5ecbf,49.256857,-123.065646,15th & Victoria (Trout Lake),2023-09-21 19:03:51.236000,1,true,1695322885,"49.256857,-123.065646"
8,10,198810b9b0af5d229d1b6fa12c620e06,49.283986,-123.065264,Triumph & Victoria,2023-09-21 19:03:51.297000,0,true,1695322621,"49.283986,-123.065264"
9,5,d02e2eaafda91425eddd24d8acd328ab,49.257985,-123.083366,Windsor & 14th,2023-09-21 19:03:51.298000,5,true,1695322950,"49.257985,-123.083366"
5,9,08c7a90bf297fde8c1f1156db13987d4,49.257939,-123.089531,14th & Fraser,2023-09-21 19:03:51.292000,1,true,1695322600,"49.257939,-123.089531"
8,6,97005696a3dff3366a8410b817388990,49.256496,-123.075426,15th & Knight,2023-09-21 19:03:51.296000,1,true,1695322816,"49.256496,-123.075426"
5,11,c52e51e3288a00993bdf892fdc2c2c2c,49.283236,-123.070443,Commercial & Pandora,2023-09-21 19:03:51.288000,1,true,1695322739,"49.283236,-123.070443"
1,15,7d231a181d21056e4ba80c4d9939fe92,49.267266,-123.090786,Carolina & Great Northern Way,2023-09-21 19:03:51.287000,2,true,1695322568,"49.267266,-123.090786"
7,7,dcf3d5c9f1b3a46f0ef2eb2247931f89,49.265242,-123.095577,6th & Prince Edward,2023-09-21 19:03:51.371000,2,true,1695322700,"49.265242,-123.095577"
7,7,9bee3167f10c884044cea0d36afcd1ef,49.265213,-123.090785,6th & Carolina,2023-09-21 19:03:51.367000,1,true,1695322761,"49.265213,-123.090785"
25,13,45a4c865db23e1cad0209afa5a799de0,49.302577,-123.155616,Stanley Park - Third Beach Parking Lot,2023-09-21 19:03:51.347000,3,true,1695322975,"49.302577,-123.155616"
14,2,fe0c57d04d6e682d284d501446095fc9,49.277595,-123.09583,Union & Dunlevy,2023-09-21 19:03:51.385000,0,true,1695322807,"49.277595,-123.09583"
8,8,b10d422b045805f1c350c47c983381e8,49.279235,-123.087528,Keefer & Hawks,2023-09-21 19:03:51.746000,0,true,1695322563,"49.279235,-123.087528"
10,6,4e8fdc99e77ba1b70d90e124a704d0c1,49.277333,-123.087359,Hawks & Union,2023-09-21 19:03:51.758000,2,true,1695322580,"49.277333,-123.087359"
13,9,b562f08327af465e4531e20226789489,49.273103,-123.069892,Charles & Commercial,2023-09-21 19:03:51.197000,0,true,1695323019,"49.273103,-123.069892"
19,1,4ac99b928a91d8ccb785c9d0b805adb6,49.261973,-123.09725,10th & Kingsway,2023-09-21 19:03:51.427000,1,true,1695323022,"49.261973,-123.09725"
10,11,99c81f71db35911c79a86a1c5edc5604,49.275295,-123.132585,Beach & Hornby,2023-09-21 19:03:51.231000,0,true,1695322959,"49.275295,-123.132585"
9,19,e12234b6f1299d178f34bffaca92f043,49.285871,-123.12105,Burrard Station (Melville & Dunsmuir),2023-09-21 19:03:51.469000,6,true,1695322922,"49.285871,-123.12105"
13,1,5a34495280727a5b50b9aa41e14e9a16,49.284893,-123.128685,Bute & Barclay,2023-09-21 19:03:51.221000,0,true,1695322737,"49.284893,-123.128685"
9,12,9130f9aa3bb037a04c17e6f2630327e5,49.263962,-123.112621,8th & Yukon,2023-09-21 19:03:51.413000,2,true,1695322824,"49.263962,-123.112621"
7,4,9a48ca226f82f52d02707b054ebc7e9e,49.277615,-123.091654,Princess & Union,2023-09-21 19:03:51.392000,0,true,1695322964,"49.277615,-123.091654"
2,20,b3bb9f58d3530d33a1a09b6be9e973e0,49.282214,-123.114101,Dunsmuir & Richards,2023-09-21 19:03:51.655000,11,true,1695322926,"49.282214,-123.114101"
8,12,c2f4e05c01ea0d27934ac7dbc50cbd0c,49.266456,-123.100324,5th & Main,2023-09-21 19:03:51.377000,3,true,1695322927,"49.266456,-123.100324"
9,11,9a5478470b56379c31cf4e671584d5cc,49.268216,-123.103168,3rd & Quebec,2023-09-21 19:03:51.365000,2,true,1695322985,"49.268216,-123.103168"
3,13,257715b845828e027ff35dd0f11c971e,49.284554,-123.111031,Richards & Cordova,2023-09-21 19:03:51.224000,4,true,1695322494,"49.284554,-123.111031"
2,17,910027847876403b57f1013c16504688,49.280216,-123.117639,Richards & Robson,2023-09-21 19:03:51.233000,6,true,1695322985,"49.280216,-123.117639"
10,14,06487275cd19694152824c7c3088e8ff,49.266314,-123.116011,Olympic Village Station,2023-09-21 19:03:51.457000,2,true,1695309778,"49.266314,-123.116011"
1,12,b428c0e64d9b9fdb3bf8e85c95ffdf6b,49.280852,-123.084746,Campbell & Hastings,2023-09-21 19:03:51.366000,1,true,1695322891,"49.280852,-123.084746"
12,3,d085c6749a32517e1fb0d070e4128402,49.285512,-123.1384,Cardero & Davie,2023-09-21 19:03:51.226000,1,true,1695322993,"49.285512,-123.1384"
29,11,a6aec7b8c25da4c02829cd7839b8933d,49.27821,-123.136972,Aquatic Centre,2023-09-21 19:03:51.742000,2,true,1695322708,"49.27821,-123.136972"
14,8,c924f6a41b130fad49cfae47271314bc,49.281301,-123.139108,Beach & Broughton,2023-09-21 19:03:51.682000,0,true,1695322973,"49.281301,-123.139108"
11,10,8e93d0da1ee6caadf21ed9575b5fa9da,49.283298,-123.142288,Beach & Cardero,2023-09-21 19:03:51.207000,2,true,1695322937,"49.283298,-123.142288"
11,7,9413725a5d3bb5ce2ad0682b07a3ffab,49.280787,-123.115271,Georgia & Homer,2023-09-21 19:03:51.213000,4,true,1695322901,"49.280787,-123.115271"
4,14,7ed043a19e6a4ece742fe747b663bdbf,49.266476,-123.109389,Columbia & 5th,2023-09-21 19:03:51.485000,2,true,1695322844,"49.266476,-123.109389"
0,19,ce5dccf5a0f190bb4567a2fd93e7971e,49.290587,-123.13625,Haro & Denman,2023-09-21 19:03:51.226000,1,true,1695322973,"49.290587,-123.13625"
17,1,1d442ad1a71774c82688a45954e47bfd,49.262835,-123.152626,Arbutus & 10th,2023-09-21 19:03:51.537000,0,true,1695322567,"49.262835,-123.152626"
10,4,2781435bde344e1b64f1bebac6bc9008,49.256825,-123.105234,Ontario & 16th,2023-09-21 19:03:51.187000,3,true,1695322945,"49.256825,-123.105234"
8,3,e9b37f2d9b7b2e2e3ade73f13acb69b2,49.275683,-123.124388,Richards & Davie,2023-09-21 19:03:51.742000,1,true,1695322840,"49.275683,-123.124388"
14,3,fffd87607aaae16fbb1f71615cbe7d17,49.263518,-123.09568,8th & Prince Edward,2023-09-21 19:03:51.333000,1,true,1695322968,"49.263518,-123.09568"
19,1,da8b6e94f90ad41a3f8de10596992372,49.28691,-123.128818,Jervis & Robson,2023-09-21 19:03:51.763000,1,true,1695322743,"49.28691,-123.128818"
14,1,32f70f7ae14ba87523c6286a6c4d5c37,49.282503,-123.124697,Smithe & Burrard,2023-09-21 19:03:51.393000,1,true,1695322801,"49.282503,-123.124697"
19,0,df5ab349a7a85d4b10da4cc3ec65c607,49.283749,-123.136133,Broughton & Davie,2023-09-21 19:03:51.697000,0,true,1695322858,"49.283749,-123.136133"
10,2,e0318460138ffbf4692005d5b5a9f900,49.262944,-123.148109,Cypress & 10th,2023-09-21 19:03:51.454000,2,true,1695322876,"49.262944,-123.148109"
3,29,db51c556fe50ec1deefbc9697c70cb51,49.27029,-123.135025,Granville Island,2023-09-21 19:03:51.434000,6,true,1695322862,"49.27029,-123.135025"
5,10,58a026f0c506caec20697a4f90538450,49.280427,-123.074082,McLean & Pender,2023-09-21 19:03:51.756000,1,true,1695322966,"49.280427,-123.074082"
3,15,0e0aef6fabaa808b3a3cef24657257a4,49.279259,-123.119145,Richards & Smithe,2023-09-21 19:03:51.256000,2,true,1695322945,"49.279259,-123.119145"
17,7,90c746df94ce1a12f1f617acfe4a8ce3,49.285836,-123.127265,Bute & Robson,2023-09-21 19:03:51.191000,7,true,1695322818,"49.285836,-123.127265"
16,3,80b5c12ef21fd47275d37b2c9935249c,49.272969,-123.164325,Trafalgar & Cornwall,2023-09-21 19:03:51.447000,0,true,1695322739,"49.272969,-123.164325"
16,7,899f59a9994302e8e1e4be01117ef707,49.27247,-123.185643,Alma & Point Grey,2023-09-21 19:03:51.761000,0,true,1695322978,"49.27247,-123.185643"
5,9,8d2d5bb3b9142f781f2a7f441e6bad7a,49.271471,-123.17731,Point Grey & Blenheim,2023-09-21 19:03:51.322000,1,true,1695322672,"49.271471,-123.17731"
6,15,5de0fe55497681d4cc9dd25509cf51ab,49.290112,-123.127062,Hastings & Broughton,2023-09-21 19:03:51.188000,0,true,1695323021,"49.290112,-123.127062"
17,1,2681455ba2d97283998a806b14d3e95c,49.263523,-123.155267,Yew & Broadway,2023-09-21 19:03:51.760000,1,true,1695322866,"49.263523,-123.155267"
12,10,064a7b39b1dbc4bfc4cf8f454e360c57,49.264928,-123.168068,8th & Macdonald,2023-09-21 19:03:51.349000,3,true,1695323008,"49.264928,-123.168068"
5,13,9c1397c06e07bf74fc049f1a0872eea0,49.264483,-123.173926,Balaclava & Broadway,2023-09-21 19:03:51.312000,4,true,1695322971,"49.264483,-123.173926"
18,8,9763838317308a4766b83696986a157b,49.264579,-123.18373,Dunbar & Broadway,2023-09-21 19:03:51.761000,0,true,1695322860,"49.264579,-123.18373"
9,6,c64ee19c62a363019ddbaedf71df2882,49.263746,-123.069892,Grandview & Commercial,2023-09-21 19:03:51.658000,1,true,1695322744,"49.263746,-123.069892"
12,2,421516af381a11f54d07fc79be68d3d3,49.258761,-123.127071,14th & Oak,2023-09-21 19:03:51.309000,2,true,1695322885,"49.258761,-123.127071"
12,6,38f045e3f43f86eae42ca4c60257ade0,49.268974,-123.190701,Wallace & 4th,2023-09-21 19:03:51.669000,0,true,1695322884,"49.268974,-123.190701"
7,13,5ba6e9725b1b0ee8cd25df976e47726b,49.273011,-123.159663,Balsam & Cornwall,2023-09-21 19:03:51.495000,0,true,1695322950,"49.273011,-123.159663"
6,10,f90ed7ad754ec04b7852941a480a4c77,49.266924,-123.173849,Balaclava & 6th,2023-09-21 19:03:51.249000,1,true,1695323008,"49.266924,-123.173849"
13,3,abfaf72456a4828a22f5bf60d3a80777,49.264326,-123.164725,Trafalgar & Broadway,2023-09-21 19:03:51.186000,1,true,1695322574,"49.264326,-123.164725"
6,10,2ff7eb4230654603592ab1b0780ec5e1,49.266636,-123.183661,Dunbar & 6th,2023-09-21 19:03:51.762000,1,true,1695322890,"49.266636,-123.183661"
21,3,ea9485fcdce0611243474d000e4ad248,49.254818,-123.114785,18th & Cambie,2023-09-21 19:03:51.237000,2,true,1695322431,"49.254818,-123.114785"
19,4,671ce9e4a92063620f772d2c57f0f3ab,49.268837,-123.177633,Blenheim & 4th,2023-09-21 19:03:51.242000,2,true,1695322831,"49.268837,-123.177633"
10,5,41a55a7e2908fbbd65175b794d26bc8d,49.255034,-123.120226,18th & Heather,2023-09-21 19:03:51.372000,4,true,1695322960,"49.255034,-123.120226"
4,11,a59924f0ff3fb481a7bd8a5e9c36858f,49.271044,-123.170661,Point Grey & Bayswater,2023-09-21 19:03:51.399000,0,true,1695322815,"49.271044,-123.170661"
13,3,89a0b49a66e54a7639ad960962148a3e,49.252691,-123.101289,20th & Main,2023-09-21 19:03:51.247000,2,true,1695322610,"49.252691,-123.101289"
7,11,44fc3d58831a9f2b919c7a3a1838b74a,49.272172,-123.097978,Station & Terminal,2023-09-21 19:03:51.369000,2,true,1695322604,"49.272172,-123.097978"
33,1,d40db8c27c5bd409d57cfa846f73c378,49.271082,-123.191458,Jericho Beach,2023-09-21 19:03:51.668000,0,true,1695322990,"49.271082,-123.191458"
21,2,4990fe5772f3b73eebeec125b41e478e,49.27808,-123.130557,Burrard & Drake,2023-09-21 19:03:51.680000,1,true,1695322782,"49.27808,-123.130557"
13,10,bf96df77771ef0ed710d8e0e67917f45,49.269969,-123.109623,Columbia & 1st,2023-09-21 19:03:51.417000,2,true,1695322832,"49.269969,-123.109623"
4,25,e75e83499d3fa2e174dc2a8ffd238119,49.287528,-123.142139,Davie & Beach,2023-09-21 19:03:51.753000,13,true,1695323018,"49.287528,-123.142139"
3,23,0438114d2e6b96118de69bc9775bb21e,49.28803,-123.142135,Morton & Denman,2023-09-21 19:03:51.191000,17,true,1695323014,"49.28803,-123.142135"
12,1,07b13214cb69f2ec007d888450f3d6bc,49.259579,-123.114769,13th & Cambie,2023-09-21 19:03:51.764000,1,true,1695322780,"49.259579,-123.114769"
11,6,f5e8fa1fc4252bda2f93dd27ed2d603f,49.2890705989865,-123.138407369468,Nelson & Denman,2023-09-21 19:03:51.772000,3,true,1695322840,"49.2890705989865,-123.138407369468"
3,11,c2a9c5d0e4578b928554c86f3d2c1162,49.287782,-123.12395,Melville & Bute,2023-09-21 19:03:51.396000,1,true,1695322997,"49.287782,-123.12395"
4,15,5f45325fdd6334a4c0d3b62853b19fa6,49.28512,-123.11242,Seymour & Cordova,2023-09-21 19:03:51.371000,3,true,1695322898,"49.28512,-123.11242"
7,11,085a0e120a08a80a58c0ae0ff9da565a,49.247854,-123.153422,Arbutus & Nanton,2023-09-21 19:03:51.471000,5,true,1695322909,"49.247854,-123.153422"
13,5,8d5f47f01d7ad668419dfe9b7fe69c9a,49.265939,-123.1129,Yukon & 6th,2023-09-21 19:03:51.414000,1,true,1695322927,"49.265939,-123.1129"
13,3,bede4b24dae115d4cd43d2e6cc9812cb,49.261122,-123.097571,11th & Kingsway,2023-09-21 19:03:51.400000,0,true,1695322530,"49.261122,-123.097571"
15,3,680b1ddfd50c4397b365c9c00f09b0d1,49.267725,-123.11311,Wylie & 2nd,2023-09-21 19:03:51.208000,2,true,1695322887,"49.267725,-123.11311"
16,3,b26f83e904f3a778466ebcd763b7316a,49.245135,-123.116098,29th & Cambie,2023-09-21 19:03:51.285000,2,true,1695322839,"49.245135,-123.116098"
10,6,6620c54bd6b3a79800b2b67e999b24d0,49.274232,-123.129998,Rolston & Granville,2023-09-21 19:03:51.770000,3,true,1695322999,"49.274232,-123.129998"
13,6,7f091b50fbbd892bf9fb869a64c47120,49.238105,-123.154966,East Blvd & 37th,2023-09-21 19:03:51.617000,5,true,1695322905,"49.238105,-123.154966"
13,7,57d39a680c9407cda0fb4de6d9c55138,49.246243,-123.124373,28th & Willow,2023-09-21 19:03:51.214000,4,true,1695323007,"49.246243,-123.124373"
10,1,97388f4e4ea102a30345524bda465f4e,49.249722,-123.104991,Ontario & 23rd,2023-09-21 19:03:51.774000,1,true,1695322478,"49.249722,-123.104991"
9,13,066ecc3584913fa035ec1417323beb80,49.243375,-123.104978,30th & Ontario,2023-09-21 19:03:51.667000,13,true,1695322765,"49.243375,-123.104978"
17,2,b530d04d393d71cffb8b8b07f4a82380,49.282087,-123.056909,Franklin & Nanaimo,2023-09-21 19:03:51.494000,0,true,1695322890,"49.282087,-123.056909"
4,12,06bdc4d55f34b2a491305534fd5defda,49.283968,-123.061615,Lakewood & Triumph,2023-09-21 19:03:51.453000,1,true,1695322861,"49.283968,-123.061615"
12,6,8e44a17d2fa446ca220b90c7063b42ca,49.287464,-123.060771,Wall & Eton,2023-09-21 19:03:51.243000,1,true,1695322864,"49.287464,-123.060771"
7,11,7c17f51469f1a7145455f65ef6afbd87,49.285575,-123.061575,Lakewood & Oxford,2023-09-21 19:03:51.367000,1,true,1695322946,"49.285575,-123.061575"
5,8,e1432b72df561a1df34290679ec9c773,49.251358,-123.115637,22nd & Cambie,2023-09-21 19:03:51.241000,0,true,1695322570,"49.251358,-123.115637"
12,5,549f00f6039e8bb702a00dcca08a8ed0,49.249184,-123.116141,King Edward & Cambie,2023-09-21 19:03:51.286000,2,true,1695322822,"49.249184,-123.116141"
18,2,d8c4fe5e09b6f010fbaa85cc7302d66b,49.245535,-123.120496,Heather & 29th,2023-09-21 19:03:51.370000,1,true,1695322926,"49.245535,-123.120496"
7,18,0c42f45e4a14957ad4a6d521d0ba8bc3,49.289255,-123.132677,Cardero & Robson,2023-09-21 19:03:51.229000,2,true,1695322846,"49.289255,-123.132677"
19,1,62a202eb98c0a4b09ba6746f5ee94ab3,49.252656,-123.067965,Commercial & 20th,2023-09-21 19:03:51.368000,1,true,1695322727,"49.252656,-123.067965"
16,1,04f64fde5ba1ebde8ad78c74914adb34,49.259469,-123.145718,Burrard & 14th,2023-09-21 19:03:51.376000,0,true,1695322877,"49.259469,-123.145718"
14,8,cc2084e365f6f230fe26bae0b6867775,49.277178,-123.13,Hornby & Drake,2023-09-21 19:03:51.398000,0,true,1695322874,"49.277178,-123.13"
14,4,f38bac9712f3beee2149ba2a97048878,49.291597,-123.129158,Cardero & Bayshore,2023-09-21 19:03:51.310000,1,true,1695323002,"49.291597,-123.129158"
11,11,9ee3bc9e836768e3e04e4f3328dae03b,49.247204,-123.101549,27th & Main,2023-09-21 19:03:51.689000,0,true,1695322996,"49.247204,-123.101549"
15,3,aa1cbf97abc3cd50515bc54633a9bb2a,49.2856698,-123.1125432,Cordova & Granville,2023-09-21 19:03:51.749000,2,true,1695322520,"49.2856698,-123.1125432"
34,6,a74744ce4bb7ea2aa9f406ac8bff95d8,49.280977,-123.035969,PNE - Hastings & Windermere,2023-09-21 19:03:51.275000,2,true,1695322761,"49.280977,-123.035969"
8,11,5699b40126e10c2f68eefc3eb18ff3a1,49.270783,-123.141564,1st & Fir,2023-09-21 19:03:51.247000,1,true,1695322960,"49.270783,-123.141564"
15,7,34fd37d12eb989b49518ef53941ee3ff,49.264019,-123.209176,Sasamat & 10th,2023-09-21 19:03:51.199000,3,true,1695322610,"49.264019,-123.209176"
18,2,b7dd37a7dd668d6d10024b7f18acc438,49.2658,-123.20596,Trimble & 8th,2023-09-21 19:03:51.246000,1,true,1695322940,"49.2658,-123.20596"
18,1,cc25ae4f093b33ba0afd1dbc0dd20324,49.265442,-123.187738,Highbury & 8th,2023-09-21 19:03:51.672000,0,true,1695322779,"49.265442,-123.187738"
